[
  {
    "nombre": "POLANCO ",
    "direccion": "Calle Francisco Petrarca 226, Polanco, Polanco V Secc, Miguel Hidalgo, 11560 Ciudad de México, CDMX",
    "horario": "Miércoles 20:00 hrs",
    "lider": "Joel Irazabal",
    "telefono": "55-49-94-81-05",
    "colider_uno": "n/a",
    "colider_dos": "",
    "lat": 19.434750218367093,
    "lng": -99.1854338481341,
    "img": "https://storage.googleapis.com/fotos_cdpp/logo.jfif"
  },

  {
    "nombre": "OAXACA ",
    "direccion": "Reforma #210, Col. Del Maestro, C.P. 68016, Oaxaca de Juárez, Oaxaca ",
    "horario": "Domingo 16:00 hrs ",
    "lider": "Juanita Santiago ",
    "telefono": "95-12-40-29-76",
    "colider_uno": "n/a",
    "colider_dos": "",
    "lat": 17.10147804206787,
    "lng": -96.7513315094095,
    "img": "https://storage.googleapis.com/fotos_cdpp/Juanita.jpg"
  },
  {
    "nombre": "SAN PEDRO TETITLÁN PUEBLA ",
    "direccion": "C. Nacional #8, Col. San Pedro Tetitlán, San José Miahuatlán, Puebla",
    "horario": "Miércoles 18:00 hrs ",
    "lider": "Francisco Castillo ",
    "telefono": "23-81-69-51-53",
    "colider_uno": "Bertha Antonio ",
    "colider_dos": "",
    "lat": 18.261729676239234,
    "lng": -97.32297275947273,
    "img": "https://storage.googleapis.com/fotos_cdpp/logo.jfif"
  },
  {
    "nombre": "PUEBLA ",
    "direccion": "2ª Privada de la 13 sur #2, Barrio La Purísima Santiago Miahuatlán, C.P. 75820, Tehuacán ",
    "horario": "Miércoles 18:00 hrs ",
    "lider": "Elizabeth García ",
    "telefono": "38-82-75-60-04",
    "colider_uno": "n/a",
    "colider_dos": "",
    "lat": 18.540005733491594,
    "lng": -97.43447594774182,
    "img": "https://storage.googleapis.com/fotos_cdpp/Elizabeth.jpg"
  },
  {
    "nombre": "TENANGO DEL VALLE ",
    "direccion": "Gral. Porfirio Díaz Mori #207 2º piso,  Colonia Centro,  C.P. 52300, Tenango del Valle, Edo. De México ",
    "horario": "Miércoles 19:00 hrs",
    "lider": "Paulina Díaz ",
    "telefono": "72-91-18-60-90 ",
    "colider_uno": "Brenda Montes de Oca ",
    "colider_dos": "",
    "lat": 19.105696023687077,
    "lng": -99.59287730947489,
    "img": "https://storage.googleapis.com/fotos_cdpp/Paulina.jpg"
  },
  {
    "nombre": "TENANGO DEL VALLE (SAN MIGUEL)",
    "direccion": "2ª cda de Ignacio Zaragoza #101. Localidad San Miguel Balderas, C.P. 52345 , Tenango del Valle, Edo. De México ",
    "horario": "Miércoles 18:00 hrs ",
    "lider": "Jesús Flores ",
    "telefono": "72-21-95-02-31",
    "colider_uno": "Ariel Flores ",
    "colider_dos": "",
    "lat": 19.11048815590092,
    "lng": -99.65369580074422,
    "img": "https://storage.googleapis.com/fotos_cdpp/logo.jfif"
  },
  {
    "nombre": "TENANGO DEL VALLE ",
    "direccion": "Juárez Nte. #201, Col. Centro, C.P. 52300, Tenango del Valle, Edo. De México ",
    "horario": "Miércoles 19:30 hrs ",
    "lider": "Gabriela Paz ",
    "telefono": "72-91-33-45-50",
    "colider_uno": "Lupita Díaz ",
    "colider_dos": "",
    "lat": 19.128068772405896,
    "lng": -99.5838977524865,
    "img": "https://storage.googleapis.com/fotos_cdpp/GabrielaPaz.jpg"
  },
  {
    "nombre": "SANTIAGO TIANGUISTENCO",
    "direccion": "Cda Alfredo del Mazo Casa #11, Depto. 2, secc. 2, Col. Cipreses, C.P. 52600, Santiago Tianguistenco, Edo. De México",
    "horario": "Miércoles 18:30 hrs ",
    "lider": "Yolem Coronado ",
    "telefono": "72-21-12-45-69",
    "colider_uno": "Vania Coronado ",
    "colider_dos": "",
    "lat": 19.173601156530253,
    "lng": -99.4662339317252,
    "img": "https://storage.googleapis.com/fotos_cdpp/GaelYolem.jpg"
  },
  {
    "nombre": "CHAPULTEPEC CENTRO ",
    "direccion": "Av. Libertad #44, Col. Centro, C.P. 52240, Chapultepec. Edo. De México ",
    "horario": "Miércoles 19:00 hrs ",
    "lider": "Tomasa López",
    "telefono": "72-25-01-74-63",
    "colider_uno": "Miguel Márquez ",
    "colider_dos": "",
    "lat": 19.203354264105304,
    "lng": -99.56381653562077,
    "img": "https://storage.googleapis.com/fotos_cdpp/Miguel.jpg"
  },
  {
    "nombre": "CHAPULTEPEC ",
    "direccion": "Av. Libertad #514, San Miguel Chapultepec, C.P. 52240, Edo. De México ",
    "horario": "Miércoles 19:30 hrs ",
    "lider": "Gael Coronado ",
    "telefono": "72-23-45-56-02",
    "colider_uno": "Michell Mercado ",
    "colider_dos": "",
    "lat": 19.203655854879475,
    "lng": -99.55283937628415,
    "img": "https://storage.googleapis.com/fotos_cdpp/GaelYolem.jpg"
  },
  {
    "nombre": "ZINACANTEPEC ",
    "direccion": "Av. Palmas S/N, Col. San Juan de las Huertas, Zinacantepec ",
    "horario": "Miércoles 19:00 hrs",
    "lider": "Marco Ramírez ",
    "telefono": "56-16-62-80-35",
    "colider_uno": "Wendy Pimentel",
    "colider_dos": "",
    "lat": 19.230642847098444,
    "lng": -99.75905874473771,
    "img": "https://storage.googleapis.com/fotos_cdpp/logo.jfif"
  },
  {
    "nombre": "MEXICALTZINGO ",
    "direccion": "Privada Allende S/N, Col. Mazachulco, C.P. 52185, Mexicaltzingo, Edo. De México ",
    "horario": "Miércoles 18:30 hrs ",
    "lider": "Fabiola González",
    "telefono": "72-25-52-43-16",
    "colider_uno": "Teresa Escalona",
    "colider_dos": "",
    "lat": 19.253856896452852,
    "lng": -99.60741660578734,
    "img": "https://storage.googleapis.com/fotos_cdpp/Fabiola.jpg"
  },
  {
    "nombre": "INFONAVIT SAN FRANCISCO (METEPEC)",
    "direccion": "Hda. Jaral de Berrio #13, Depto. 13-B, Col. Infonavit San Francisco, C.P.52176, Metepec ",
    "horario": "Miércoles 19:00 hrs",
    "lider": "María de Carmen Jiménez ",
    "telefono": "72-21-16-85-21",
    "colider_uno": "Maricarmen Pimentel ",
    "colider_dos": "Rafael Pimentel ",
    "lat": 19.26180207274618,
    "lng": -99.59607487931508,
    "img": "https://storage.googleapis.com/fotos_cdpp/logo.jfif"
  },
  {
    "nombre": "METEPEC ",
    "direccion": "Municipio Chiconcuac #18 A, Col. Izcalli Cuauhtémoc IV, C.P. 52169, Metepec, Edo. De México",
    "horario": "Miércoles 19:00 hrs",
    "lider": "Juan Carlos Hernández ",
    "telefono": "72-21-68-20-96",
    "colider_uno": "Griselda Hernández ",
    "colider_dos": "",
    "lat": 19.27073155171741,
    "lng": -99.59723599701732,
    "img": "https://storage.googleapis.com/fotos_cdpp/JuanCarlos.jpg"
  },
  {
    "nombre": "CACALOMACAN ",
    "direccion": "Independencia #27 Depto. 8, Col. Cacalomacán, C.P. 50265, Toluca, Edo. De México  ",
    "horario": "Miércoles 18:30 hrs ",
    "lider": "Jorge Paz ",
    "telefono": "72-22-92-96-80",
    "colider_uno": "Andy Paz ",
    "colider_dos": "",
    "lat": 19.292062581964377,
    "lng": -99.65600453249633,
    "img": "https://storage.googleapis.com/fotos_cdpp/JorgePaz.jpg"
  },
  {
    "nombre": "SAN BARTOLO (ALVARO OBREGON)",
    "direccion": "Comunal #28, Col. Pueblo San Bartolo Ameyalco, C.P. 01800, Alcaldía Álvaro Obregón",
    "horario": "Miércoles 19:30 hrs",
    "lider": "Aaron Espinosa ",
    "telefono": "56-11-79-14-36",
    "colider_uno": "Sofía García ",
    "colider_dos": "",
    "lat": 19.328221416558794,
    "lng": -99.276942116616,
    "img": "https://storage.googleapis.com/fotos_cdpp/logo.jfif"
  },
  {
    "nombre": "IZTAPALAPA",
    "direccion": "Calle Chinampa Mz 374 Lt 44, Col. Miguel de la Madrid, C.P. 09698, Alcaldía Iztapalapa",
    "horario": "Viernes 20:00 hrs",
    "lider": "Yoss Zurita ",
    "telefono": "55-45-76-66-22",
    "colider_uno": "Lili Zurita ",
    "colider_dos": "",
    "lat": 19.34020949831716,
    "lng": -99.00187430437707,
    "img": "https://storage.googleapis.com/fotos_cdpp/yoss.jpg"
  },
  {
    "nombre": "SAN ÁNGEL",
    "direccion": "Michoacán #41, Col. Progreso Tizapán, C.P. 01090, Alcaldía Álvaro Obregón ",
    "horario": "Miércoles 19:00 hrs",
    "lider": "Brenda Duperou ",
    "telefono": "55-16-93-32-25",
    "colider_uno": "Rosa Gutiérrez ",
    "colider_dos": "",
    "lat": 19.340422669222313,
    "lng": -99.19911642226197,
    "img": "https://storage.googleapis.com/fotos_cdpp/Brenda.jpg"
  },
  {
    "nombre": "SAN MATEO ",
    "direccion": "Emiliano Zapata #65, Col. San Mateo Tlaltenango, C.P. 05600, Alcaldía Cuajimalpa ",
    "horario": "Miércoles 19:30 hrs",
    "lider": "Lorena Martínez",
    "telefono": "55-54-53-30-51",
    "colider_uno": "Lorena Contreras",
    "colider_dos": "",
    "lat": 19.341359085997972,
    "lng": -99.27790514820502,
    "img": "https://storage.googleapis.com/fotos_cdpp/lorena.jpg"
  },
  {
    "nombre": "ZENTLAPATL CUAJIMALPA",
    "direccion": "Camino al Bosque #166, Col. Zentlapatl,     C.P. 05010, Alcaldía Cuajimalpa",
    "horario": "Miércoles 19:30 hrs ",
    "lider": "Alfonso Cervantes ",
    "telefono": "55-13-82-88-96",
    "colider_uno": "Arely Suárez ",
    "colider_dos": "",
    "lat": 19.34961799081172,
    "lng": -99.3098470535887,
    "img": "https://storage.googleapis.com/fotos_cdpp/Alfonso.jpg"
  },
  {
    "nombre": "COAHUILA 2 CUAJIMALPA",
    "direccion": "Cda. Coahuila #30, Cond. el Obelisco, Torre Alfa Depto. 22, Col. Cuajimalpa, Alcaldía Cuajimalpa. C.P. 05000 ",
    "horario": "Miércoles 19:00 hrs",
    "lider": "Steph",
    "telefono": "56-24-27-24-61",
    "colider_uno": "Luz María ",
    "colider_dos": "Flor ",
    "lat": 19.35248173749195,
    "lng": -99.29962883192158,
    "img": "https://storage.googleapis.com/fotos_cdpp/logo.jfif"
  },
  {
    "nombre": "U. HAB ALBARRADA IZTAPALAPA",
    "direccion": "Batallones Rojos #205, Edif. 50 Depto 301, Col. Albarrada, C.P. 09240, Alcaldía Iztapalapa ",
    "horario": "Miércoles 19:00 hrs",
    "lider": "Miguel Ramírez ",
    "telefono": "55-12-23-49-62",
    "colider_uno": "Adriana Ambrosio ",
    "colider_dos": "",
    "lat": 19.35398941389599,
    "lng": -99.06235461625461,
    "img": "https://storage.googleapis.com/fotos_cdpp/logo.jfif"
  },
  {
    "nombre": "C. OCAMPO CUAJIMALPA",
    "direccion": "Prol. Ocampo #235, Col. Cuajimalpa, Alcaldía Cuajimalpa. C.P. 05000",
    "horario": "Miércoles 19:00 hrs",
    "lider": "Josefina Camargo ",
    "telefono": "55-12-91-60-57",
    "colider_uno": "n/a",
    "colider_dos": "",
    "lat": 19.35480133473901,
    "lng": -99.30374577682568,
    "img": "https://storage.googleapis.com/fotos_cdpp/Josefina.jpg"
  },
  {
    "nombre": "COAHUILA ",
    "direccion": "Coahuila #46 Int. 102B, Col. Cuajimalpa, C.P. 05000, Alcaldía Cuajimalpa ",
    "horario": "Miércoles 19:30 hrs",
    "lider": "Sonia Morales ",
    "telefono": "55-74-85-93-69",
    "colider_uno": "Angélica Morales ",
    "colider_dos": "",
    "lat": 19.358089378188073,
    "lng": -99.29270499925566,
    "img": "https://storage.googleapis.com/fotos_cdpp/logo.jfif"
  },
  {
    "nombre": "CUAJIMALPA ",
    "direccion": "Carretera México-Toluca #5636, Col. Lomas de Memetla, C.P. 05330, Alcaldía Cuajimalpa ",
    "horario": "Miércoles 19:00 hrs",
    "lider": "Dulce Salazar ",
    "telefono": "55-38-83-96-93",
    "colider_uno": "Stephany Montes ",
    "colider_dos": "",
    "lat": 19.358846715200194,
    "lng": -99.28953816133067,
    "img": "https://storage.googleapis.com/fotos_cdpp/LIDERES_7567.jpg"
  },
  {
    "nombre": "ADOLFO LÓPEZ MATEOS (CUAJIMALPA)",
    "direccion": "1ª cda. Adolfo López Mateos #94, Col. Cuajimalpa, C.P. 05280, Alcaldía Cuajimalpa  ",
    "horario": "Miércoles 19:00 hrs",
    "lider": "Isabel Chávez ",
    "telefono": "56-17-47-20-29",
    "colider_uno": "Diana Martínez ",
    "colider_dos": "",
    "lat": 19.361858810181328,
    "lng": -99.29438946788932,
    "img": "https://storage.googleapis.com/fotos_cdpp/logo.jfif"
  },
  {
    "nombre": "CUAJIMALPA ",
    "direccion": "Av. México #359, Col. Manzanastitla, C.P. 05270, Alcaldía Cuajimalpa ",
    "horario": "Miércoles 19:30 hrs",
    "lider": "Dinorah Zepeda ",
    "telefono": "55-54-55-14-48",
    "colider_uno": "Allyson Sánchez ",
    "colider_dos": "",
    "lat": 19.366395575354453,
    "lng": -99.29933112207591,
    "img": "https://storage.googleapis.com/fotos_cdpp/DinoZepeda.JPG"
  },
  {
    "nombre": "JESÚS DEL MONTE ",
    "direccion": "Jesús del Monte #47, Residencial Villa Lago, Torre D 102, Col. Jesús del Monte, C.P. 52764, Huixquilucan, Edo. De México ",
    "horario": "Miércoles 19:30 hrs",
    "lider": "Priscilla Ortiz",
    "telefono": "55-26-99-14-73",
    "colider_uno": "Oscar Sierra",
    "colider_dos": "",
    "lat": 19.372779891602807,
    "lng": -99.29365215674959,
    "img": "https://storage.googleapis.com/fotos_cdpp/Oscar.jpg"
  },
  {
    "nombre": "MIXCOAC ",
    "direccion": "Tiziano #21, 2º piso local 16, Col. Mixcoac, C.P. 03910, Alcaldía Benito Juárez",
    "horario": "Miércoles 20:00 hrs ",
    "lider": "Itzel Solorzano",
    "telefono": "56-50-47-12-06",
    "colider_uno": "n/a",
    "colider_dos": "",
    "lat": 19.373654657120014,
    "lng": -99.18934952690216,
    "img": "https://storage.googleapis.com/fotos_cdpp/Itzel.jpg"
  },
  {
    "nombre": "PUEBLO DE SANTA FE",
    "direccion": "Av. Vasco de Quiroga #1725, Col. Santa Fe, C.P. 01210, Alcaldía Álvaro Obregón ",
    "horario": "Miércoles 20:00 hrs ",
    "lider": "Uriel Fregoso ",
    "telefono": "55-14-86-73-26",
    "colider_uno": "Doribel Díaz ",
    "colider_dos": "",
    "lat": 19.38096340169526,
    "lng": -99.2419790036594,
    "img": "https://storage.googleapis.com/fotos_cdpp/Uriel.jpg"
  },
  {
    "nombre": "LOMAS",
    "direccion": "Av. Pº. De la Reforma #2693, Col. Lomas de Bezares, C.P. 11910, Alcaldía Miguel Hidalgo ",
    "horario": "Miércoles 20:00 hrs",
    "lider": "Irene González",
    "telefono": "56-24-79-62-72",
    "colider_uno": "Iván Aguiñiga",
    "colider_dos": "Carlos y Brenda",
    "lat": 19.39049971440555,
    "lng": -99.23962400364125,
    "img": "https://storage.googleapis.com/fotos_cdpp/Irene.JPG"
  },
  {
    "nombre": "INTERLOMAS ",
    "direccion": "Paseo de Anáhuac #10, Col. Paseo de las Palmas, C.P. 52787, Huixquilucan ",
    "horario": "Miércoles 20:00 hrs ",
    "lider": "Regina Jiménez   ",
    "telefono": "55-85-81-63-07",
    "colider_uno": "Juan Pablo Sánchez ",
    "colider_dos": "Dinorah Iturbe ",
    "lat": 19.393190150898906,
    "lng": -99.27753644086904,
    "img": "https://storage.googleapis.com/fotos_cdpp/Regina.jpg"
  },
  {
    "nombre": "CENTRAL PARK INTERLOMAS ",
    "direccion": "Vía Magna #6, Col. Lomas de las Palmas, Central Park Interlomas, C.P. 52787, Huixquilucan",
    "horario": "Miércoles 20:00 hrs ",
    "lider": "Velia Bolaños ",
    "telefono": "55-45-76-48-02",
    "colider_uno": "Patricia Segura ",
    "colider_dos": "",
    "lat": 19.40324979918983,
    "lng": -99.27496514904988,
    "img": "https://storage.googleapis.com/fotos_cdpp/logo.jfif"
  },
  {
    "nombre": "CHABACANO ",
    "direccion": "San Francisco Tultengo #286, Ed D 303, Col. Paulino Navarro, Alcaldía Cuauhtémoc, C.P. 06870",
    "horario": "Miércoles 20:00 hrs ",
    "lider": "Eumir Pérez",
    "telefono": "55-69-67-01-28",
    "colider_uno": "Erika Díaz ",
    "colider_dos": "",
    "lat": 19.41096963705424,
    "lng": -99.12891680141848,
    "img": "https://storage.googleapis.com/fotos_cdpp/Eumir.jpg"
  },
  {
    "nombre": "NUEVA TENOCHTITLÁN G.A.M.  ",
    "direccion": "Oriente 91 #4015, Col. Nueva Tenochtitlan, C.P. 07890, Alcaldía Gustavo A. Madero ",
    "horario": "Miércoles 19:30 hrs",
    "lider": "Mayela Díaz ",
    "telefono": "56-20-09-56-48",
    "colider_uno": "Agustina Mendoza ",
    "colider_dos": "",
    "lat": 19.457645046345338,
    "lng": -99.10591523310586,
    "img": "https://storage.googleapis.com/fotos_cdpp/Agustina.jpg"
  },
  {
    "nombre": "EX-HIPÓDROMO PERALVILLO ",
    "direccion": "Ricardo Bel #26, Col. Ex-hipódromo de Peralvillo, C.P. 06250, Alcaldía Cuauhtémoc ",
    "horario": "Miércoles 19:30 hrs",
    "lider": "Eva Martínez ",
    "telefono": "55-12-27-09-13",
    "colider_uno": "Marisol Nava ",
    "colider_dos": "",
    "lat": 19.45813090273898,
    "lng": -99.13610352359666,
    "img": "https://storage.googleapis.com/fotos_cdpp/Eva.jpg"
  },
  {
    "nombre": "GUSTAVO A. MADERO ",
    "direccion": "Norte 72-A #6408, Col. Gertrudis Sánchez, C.P. 07830, Alcaldía Gustavo A. Madero ",
    "horario": "Miércoles 19:30 hrs ",
    "lider": "Lidia García ",
    "telefono": "55-38-04-45-68",
    "colider_uno": "Raúl Montes  ",
    "colider_dos": "",
    "lat": 19.47141297049323,
    "lng": -99.10431166015505,
    "img": "https://storage.googleapis.com/fotos_cdpp/Lidia.jpg"
  },
  {
    "nombre": "GUSTAVO A. MADERO ",
    "direccion": "Norte 72-A #6408, Col. Gertrudis Sánchez, C.P. 07830, Alcaldía Gustavo A. Madero ",
    "horario": "Sábado 11:00 hrs",
    "lider": "Jacobo Sánchez ",
    "telefono": "55-33-39-97-35",
    "colider_uno": "Irma García ",
    "colider_dos": "",
    "lat": 19.47141297049323,
    "lng": -99.10431166015505,
    "img": "https://storage.googleapis.com/fotos_cdpp/jacoco.jpg"
  },
  {
    "nombre": "ECATEPEC ",
    "direccion": "Amapola lote 5, Col. San Juan Ixhuatepec, C.P. 54180, Tlalnepantla, Edo. De México ",
    "horario": "Miércoles 19:00 hrs",
    "lider": "Axel Delgado ",
    "telefono": "55-51-81-32-05",
    "colider_uno": "Elizabeth Juárez ",
    "colider_dos": "",
    "lat": 19.512733884979404,
    "lng": -99.11239835077451,
    "img": "https://storage.googleapis.com/fotos_cdpp/logo.jfif"
  },
  {
    "nombre": "SATÉLITE",
    "direccion": "Circuito Circunvalación Poniente #29, Ciudad Satélite, C.P. 53100, Naucalpan ",
    "horario": "Miércoles 20:00 hrs ",
    "lider": "Daniela Morales ",
    "telefono": "55-82-33-43-42",
    "colider_uno": "n/a",
    "colider_dos": "",
    "lat": 19.519973326910847,
    "lng": -99.23679200025789,
    "img": "https://storage.googleapis.com/fotos_cdpp/Daniela.jpg"
  },
  {
    "nombre": "RIBERA TOWER",
    "direccion": "Cond. Ribera Tower and Houses, Casa 32B, Col. La Estadia, C.P. 52930, Ciudad López Mateos, Edo. De México ",
    "horario": "Miércoles 20:00 hrs ",
    "lider": "Luis Espericueta ",
    "telefono": "55-80-32-11-01",
    "colider_uno": "n/a",
    "colider_dos": "",
    "lat": 19.53720819928363,
    "lng": -99.29068255152944,
    "img": "https://storage.googleapis.com/fotos_cdpp/Luis.JPG"
  },
  {
    "nombre": "ATIZAPÁN DE ZARAGOZA ",
    "direccion": "Av. Bosque Esmeralda ote. Lt. 1 Mz. 6, Arboro Residencial, Col. Bosque Esmeralda, C.P. 52930, Atizapán de Zaragoza, Edo. De México  ",
    "horario": "Miércoles 20:00 hrs ",
    "lider": "Olivia Meza ",
    "telefono": "55-19-52-88-01",
    "colider_uno": "n/a",
    "colider_dos": "",
    "lat": 19.54590872111441,
    "lng": -99.2924747696239,
    "img": "https://storage.googleapis.com/fotos_cdpp/Olivia.jpg"
  },
  {
    "nombre": "VISTA ESMERALDA ",
    "direccion": "Puerta Marbella #20, Fracc. Vista Esmeralda, Col. Bosque Esmeralda, C.P. 52930, Atizapán de Zaragoza, Edo. De México",
    "horario": "Miércoles 20:00 hrs ",
    "lider": "Mónica Vargas ",
    "telefono": "55-49-92-55-09",
    "colider_uno": "Leticia Ortiz ",
    "colider_dos": "",
    "lat": 19.552186739451773,
    "lng": -99.28646489968136,
    "img": "https://storage.googleapis.com/fotos_cdpp/Monica.JPG"
  },
  {
    "nombre": "SAYAVEDRA (ATIZAPAN)",
    "direccion": "Blvd. De la Torre # 6, Condado de Sayavedra, C.P. 52938, Atizapán de Zaragoza, Edo. De México ",
    "horario": "Miércoles 20:00 hrs",
    "lider": "Emiliano Rodríguez ",
    "telefono": "55-44-48-38-95",
    "colider_uno": "Patricia González",
    "colider_dos": "",
    "lat": 19.575100315068894,
    "lng": -99.32464584483513,
    "img": "https://storage.googleapis.com/fotos_cdpp/logo.jfif"
  },
  {
    "nombre": "TEMASCALAPA",
    "direccion": "Mar Báltico #3-B, Col. Ex-hacienda de Paula, C.P. 55993, Temascalapa, Edo. de México ",
    "horario": "Miércoles 20:00 hrs ",
    "lider": "Erick Jiménez ",
    "telefono": "56-44-89-26-36",
    "colider_uno": "Miriam Juárez  ",
    "colider_dos": "",
    "lat": 19.804452705131197,
    "lng": -98.92661490365217,
    "img": "https://storage.googleapis.com/fotos_cdpp/Miriam.jpg"
  },
  {
    "nombre": "TIZAYUCA ",
    "direccion": "Paseo del Bosque #2, Fracc. Ciudad Natura, C.P. 43816 , Tizayuca, Hidalgo ",
    "horario": "Miércoles 18:30 hrs ",
    "lider": "Rosa Sánchez",
    "telefono": "77-11-77-15-60",
    "colider_uno": "Brandon Cañibe",
    "colider_dos": "",
    "lat": 19.857684108913173,
    "lng": -98.99946565674928,
    "img": "https://storage.googleapis.com/fotos_cdpp/logo.jfif"
  },
  {
    "nombre": "TOLUCA",
    "direccion": "Presa de Tingambato # 108, Col. Com. Federal de Electricidad, C.P. 50150, Toluca",
    "horario": "Miércoles 18:00 hrs ",
    "lider": "Jahaziel Paz ",
    "telefono": "72-91-33-43-55",
    "colider_uno": "Israel Paz ",
    "colider_dos": "",
    "lat": 19.27733187282363,
    "lng": -99.6375522333315,
    "img": "https://storage.googleapis.com/fotos_cdpp/jahaz.jpg"
  },
  {
    "nombre": "TENANGO DEL VALLE ",
    "direccion": "Calle Cedros #102, Colonia del Bosque, C.P. 52300, Tenango del Valle, Edo. De México ",
    "horario": "Miércoles 19:00 hrs",
    "lider": "Berenice Alonso  ",
    "telefono": "72-93-32-93-01",
    "colider_uno": "Guadalupe Mendoza ",
    "colider_dos": "",
    "lat": 19.110961625324368,
    "lng": -99.58948460230076,
    "img": "https://storage.googleapis.com/fotos_cdpp/Guadalupe.jpg"
  },
  {
    "nombre": "MEXICALTZINGO ",
    "direccion": "Insurgentes #214, Colonia Azcapotzalco, C.P. 52183, Mexicaltzingo, Edo. De México",
    "horario": "Miércoles 19:00 hrs",
    "lider": "Cari Valdez  ",
    "telefono": "72-24-44-70-41 ",
    "colider_uno": "Itzel Valdez",
    "colider_dos": "",
    "lat": 19.211638229262984,
    "lng": -99.58421209188361,
    "img": "https://storage.googleapis.com/fotos_cdpp/Kari.jpg"
  },
  {
    "nombre": "IZTAPALAPA",
    "direccion": "Cda. Huecampool Mz. 35 Lt. 47, Colonia Lomas de la estancia, C.P. 09640, Alcaldía Iztapalapa ",
    "horario": "Miércoles 19:00 hrs ",
    "lider": "América Torres ",
    "telefono": "55-33-50-46-81 ",
    "colider_uno": "n/a",
    "colider_dos": "",
    "lat": 19.33572828906499,
    "lng": -99.0075192852868,
    "img": "https://storage.googleapis.com/fotos_cdpp/America.jpg"
  },
  {
    "nombre": "METEPEC ",
    "direccion": "Arenque # 7B, Col. Infonavit Las Marinas, C.P. 52176, Metepec, Edo. De México ",
    "horario": "Miércoles 18:00 hrs ",
    "lider": "Miriam Ramírez   ",
    "telefono": "72-26-21-07-26 ",
    "colider_uno": "Miguel Ramírez",
    "colider_dos": "",
    "lat": 19.27410661957299,
    "lng": -99.59740005903419,
    "img": "https://storage.googleapis.com/fotos_cdpp/Miriam.jpg"
  },
  {
    "nombre": "MEXICALTZINGO ",
    "direccion": "Privada de Preciliano Díaz, Int. , Col. Azcapotzalco, C.P. 52183, Mexicaltzingo, Edo. De México  ",
    "horario": "Miércoles 19:30 hrs ",
    "lider": "Maribel Garduño ",
    "telefono": "72-22-88-75-71",
    "colider_uno": "Rosa María Martínez",
    "colider_dos": "Pompilio Martínez ",
    "lat": 19.20902073191505,
    "lng": -99.5781012066452,
    "img": "https://storage.googleapis.com/fotos_cdpp/Maribel.jpg"
  },
  {
    "nombre": "SAUCES I             TOLUCA",
    "direccion": "Av. Encinos Mz. 19 Lt. 9, Casa 101-A, Col. Sauces I, C.P. 50210, Toluca, Edo. De México ",
    "horario": "Miércoles 19:00 hrs",
    "lider": "Pamela Medrano ",
    "telefono": "72-25-17-03-90",
    "colider_uno": "Reyna Mejía ",
    "colider_dos": "",
    "lat": 19.357269068285156,

    "lng": -99.59614750031523,
    "img": "https://storage.googleapis.com/fotos_cdpp/Pamela.jpg"
  },
  {
    "nombre": "IXTAPALUCA ",
    "direccion": "Tomas Urbina Mz.42 Lt.34, Col. Juan Antonio Soberanes, C.P. 56588, San Francisco A.",
    "horario": "Miércoles 20:30 hrs ",
    "lider": "Jesús Torres ",
    "telefono": "56-45-72-70-49",
    "colider_uno": "Fanny García ",
    "colider_dos": "",
    "lat": 19.342578013841898,
    "lng": -98.84566894388583,
    "img": "https://storage.googleapis.com/fotos_cdpp/Jesus.jpg"
  },
  {
    "nombre": "TENANGO DEL VALLE (SAN MARTÍN)",
    "direccion": "Blvr. Narciso Bassols #210, Col. San Martín, C.P. 52300. Tenango del Valle, Edo. De México ",
    "horario": "Miércoles 19:00 hrs",
    "lider": "Sergio Mendoza ",
    "telefono": "72-21-77-29-90",
    "colider_uno": "Azucena Sánchez",
    "colider_dos": "",
    "lat": 19.10033936025905,
    "lng": -99.58686591795141,
    "img": "https://storage.googleapis.com/fotos_cdpp/logo.jfif"
  },
  {
    "nombre": "TONÁTICO ",
    "direccion": "Matamoros #13, Col. , C.P. 51950, Tonatico, Edo. De México ",
    "horario": "Miércoles 20:00 hrs",
    "lider": "Vladimiro Aguirre",
    "telefono": "55-28-01-61-56",
    "colider_uno": "Gabriela Gutiérrez ",
    "colider_dos": "",
    "lat": 18.8033698148101,
    "lng": -99.6675960922955,
    "img": "https://storage.googleapis.com/fotos_cdpp/logo.jfif"
  },
  {
    "nombre": "IZTAPALAPA PARAJE ZACATEPEC",
    "direccion": "Cda de Morelos #37, Int. 2, Col. Paraje Zacatepec, C.P. 09560, Alcaldía Iztapalapa ",
    "horario": "Miércoles 19:00 hrs",
    "lider": "Mayela Ramírez ",
    "telefono": "56-10-56-33-68",
    "colider_uno": "Michell Arredondo ",
    "colider_dos": "",
    "lat": 19.35730252923141,
    "lng": -99.01535819022959,
    "img": "https://storage.googleapis.com/fotos_cdpp/logo.jfif"
  },
  {
    "nombre": "METEPEC LA PILA ",
    "direccion": "Priv. La quinta Mz 15 Lt. 6, Edif. 1, Col. Andrés Molina Enríquez, C.P. 52149, Metepec, Edo. De México ",
    "horario": "Miércoles 20:00 hrs",
    "lider": "Eleuteria Hernández",
    "telefono": "72-29-06-76-69",
    "colider_uno": "Armando Hernández ",
    "colider_dos": "",
    "lat": 19.259412770885287,

    "lng": -99.5890279506965,
    "img": "https://storage.googleapis.com/fotos_cdpp/logo.jfif"
  },
  {
    "nombre": "CACALOTE (JESÚS DEL MONTE II)",
    "direccion": "2ª Cda. Federico García Lorca Casa 26, Col. Jesús del Monte, C.P. 05260, Alcaldía Cuajimalpa ",
    "horario": "Miércoles 19:30 hrs",
    "lider": "Jazmín Narciso ",
    "telefono": "55-11-22-17-112",
    "colider_uno": "Yolanda Hernández",
    "colider_dos": "",
    "lat": 19.367563035829534,
    "lng": -99.29487580504566,
    "img": "https://storage.googleapis.com/fotos_cdpp/logo.jfif"
  },
  {
    "nombre": "LA CAMPESINA (TENANGO DEL VALLE)",
    "direccion": "2ª Cda. De David Alfaro Siqueiros S/N, Col. La Campesina, C.P. 52300, Tenango del Valle ",
    "horario": "Miércoles 18:45 hrs ",
    "lider": "Deyanira Cruz ",
    "telefono": "72-03-26-50-39",
    "colider_uno": "Ingrid Cruz ",
    "colider_dos": "",
    "lat": 19.10380426438951,
    "lng": -99.58104943591685,
    "img": "https://storage.googleapis.com/fotos_cdpp/logo.jfif"
  },
  {
    "nombre": "EL CALVARIO ZENTLAPATL",
    "direccion": "Cda. Del Calvario # 7 prov., Col. Zentlapatl, C.P. 05010, Alcaldía Cuajimalpa ",
    "horario": "Miércoles 19:00 hrs",
    "lider": "Ricardo Moreno ",
    "telefono": "55-34-95-32-50",
    "colider_uno": "María Cruz ",
    "colider_dos": "",
    "lat": 19.35819941810308,
    "lng": -99.30388604677056,
    "img": "https://storage.googleapis.com/fotos_cdpp/logo.jfif"
  },
  {
    "nombre": "ALMOLOYA DEL RÍO",
    "direccion": "Nezahualcóyotl #3, Col. Centro, C.P. 52540,  Almoloya del Río, Edo. De México ",
    "horario": "Miércoles 19:30 hrs",
    "lider": "Gerardo Coronado ",
    "telefono": "71-31-03-21-69",
    "colider_uno": "Daniela Manzanares ",
    "colider_dos": "",
    "lat": 1,
    "lng": -16,
    "img": "https://storage.googleapis.com/fotos_cdpp/2023.06.04_LIDERES0619.jpg"
  }
]
